City_ID,City,Lat,Lng,Max Temp,Humidity,Cloudiness,Wind Speed,Country,Date
0,bluff,-46.6,168.3333,9.9,79,67,15.26,NZ,2023-07-03 21:59:31
1,silifke,36.3778,33.9344,25.61,83,0,4.23,TR,2023-07-03 21:58:44
2,leningradskiy,69.3833,178.4167,13.57,44,100,4.1,RU,2023-07-03 21:59:31
3,srednekolymsk,67.45,153.6833,12.81,58,96,4.56,RU,2023-07-03 21:59:31
4,chokurdakh,70.6333,147.9167,4.67,56,99,5.41,RU,2023-07-03 21:59:31
5,butaritari,3.0707,172.7902,27.75,78,100,5.13,KI,2023-07-03 21:59:32
6,cape town,-33.9258,18.4232,13.4,88,65,2.57,ZA,2023-07-03 21:57:27
7,ribeira grande,38.5167,-28.7,20.99,77,100,0.45,PT,2023-07-03 21:59:32
8,san quintin,30.4833,-115.95,21.86,70,2,6.07,MX,2023-07-03 21:59:32
9,pavlogradka,54.2024,73.5592,19.27,55,88,4.22,RU,2023-07-03 21:59:33
10,twin falls,42.3505,-114.6445,28.85,22,71,7.69,US,2023-07-03 21:59:33
11,kazanskaya,45.4106,40.4361,21.58,72,22,1.92,RU,2023-07-03 21:59:33
12,albany,42.6001,-73.9662,26.24,84,97,0.69,US,2023-07-03 21:53:35
13,rikitea,-23.1203,-134.9692,22.9,73,76,7.15,PF,2023-07-03 21:59:33
14,kapaa,22.0752,-159.319,28.18,81,100,3.6,US,2023-07-03 21:59:34
15,sitka,57.0531,-135.33,17.01,63,72,2.66,US,2023-07-03 21:59:34
16,cabo san lucas,22.8909,-109.9124,30.9,81,100,3.6,MX,2023-07-03 21:59:34
17,mataura,-46.1927,168.8643,8.22,89,100,6.62,NZ,2023-07-03 21:59:35
18,caravelas,-17.7125,-39.2481,22.36,57,79,6.89,BR,2023-07-03 21:59:35
19,tiksi,71.6872,128.8694,3.34,69,96,1.77,RU,2023-07-03 21:59:35
20,mount gambier,-37.8333,140.7667,7.77,98,100,1.9,AU,2023-07-03 21:59:35
21,saskylakh,71.9167,114.0833,15.06,51,91,5.12,RU,2023-07-03 21:59:35
22,qaanaaq,77.484,-69.3632,4.32,89,23,1.18,GL,2023-07-03 21:54:38
23,bredasdorp,-34.5322,20.0403,10.79,87,100,2.77,ZA,2023-07-03 21:59:36
24,gornopravdinsk,60.05,69.9,18.37,77,8,2.21,RU,2023-07-03 21:59:36
25,ushuaia,-54.8,-68.3,5.81,52,20,5.14,AR,2023-07-03 21:57:48
26,kavaratti,10.5669,72.642,27.38,78,100,14.7,IN,2023-07-03 21:59:36
27,yellowknife,62.456,-114.3525,20.31,32,20,2.06,CA,2023-07-03 21:59:36
28,hermanus,-34.4187,19.2345,9.33,79,95,2.13,ZA,2023-07-03 21:59:36
29,dikson,73.5069,80.5464,3.09,85,24,6.9,RU,2023-07-03 21:59:36
30,camacupa,-12.0167,17.4833,12.93,39,3,1.54,AO,2023-07-03 21:59:37
31,kuito,-12.3833,16.9333,11.37,42,1,1.55,AO,2023-07-03 21:59:37
32,saint-philippe,-21.3585,55.7679,19.77,76,94,5.72,RE,2023-07-03 21:59:37
33,biak,-0.9131,122.8766,24.29,84,99,1.43,ID,2023-07-03 21:59:37
34,kavieng,-2.5744,150.7967,28.23,79,100,4.98,PG,2023-07-03 21:59:37
35,maragogi,-9.0122,-35.2225,23.56,87,100,4.79,BR,2023-07-03 21:59:38
36,jamestown,42.097,-79.2353,24.45,81,40,5.14,US,2023-07-03 21:59:38
37,upernavik,72.7868,-56.1549,4.83,75,63,4.29,GL,2023-07-03 21:59:38
38,yeniseysk,58.4497,92.1703,11.42,90,78,1.36,RU,2023-07-03 21:59:38
39,lovozero,68.005,35.0117,7.13,94,1,1.15,RU,2023-07-03 21:59:38
40,flinders,-34.5833,150.8552,13.54,90,100,1.79,AU,2023-07-03 21:59:39
41,iqaluit,63.7506,-68.5145,7.85,70,75,3.09,CA,2023-07-03 21:59:39
42,carnarvon,-24.8667,113.6333,18.35,73,52,5.74,AU,2023-07-03 21:59:39
43,atuona,-9.8,-139.0333,26.32,69,5,10.3,PF,2023-07-03 21:59:39
44,tuktoyaktuk,69.4541,-133.0374,22.0,56,20,6.69,CA,2023-07-03 21:59:39
45,bethel,41.3712,-73.414,29.56,75,75,2.06,US,2023-07-03 21:59:39
46,gutierrez,4.2547,-74.0025,16.37,90,34,1.8,CO,2023-07-03 21:59:40
47,nanortalik,60.1432,-45.2371,7.49,72,100,8.95,GL,2023-07-03 21:59:40
48,tuatapere,-46.1333,167.6833,9.05,84,100,8.28,NZ,2023-07-03 21:59:40
49,lhokseumawe,5.1801,97.1507,26.09,85,81,1.55,ID,2023-07-03 21:59:40
50,carman,49.4992,-98.0016,23.83,49,82,5.14,CA,2023-07-03 21:59:40
51,shimoda,34.6667,138.95,23.88,92,94,3.14,JP,2023-07-03 21:59:41
52,busselton,-33.65,115.3333,11.9,70,99,10.61,AU,2023-07-03 21:59:41
53,zyryanka,65.75,150.85,11.3,90,100,7.14,RU,2023-07-03 21:59:41
54,castro,-24.7911,-50.0119,13.82,78,99,2.1,BR,2023-07-03 21:59:41
55,ust-tsilma,65.441,52.1498,16.28,66,31,1.61,RU,2023-07-03 21:59:41
56,pevek,69.7008,170.3133,2.84,99,100,3.26,RU,2023-07-03 21:55:47
57,beringovskiy,63.05,179.3167,8.75,77,10,3.66,RU,2023-07-03 21:59:42
58,micheweni,-4.9667,39.8333,24.56,78,22,6.54,TZ,2023-07-03 21:59:42
59,tura,25.5198,90.2201,23.17,98,72,1.67,IN,2023-07-03 21:59:42
60,cedar city,37.6775,-113.0619,34.48,17,53,3.13,US,2023-07-03 21:59:42
61,west wendover,40.7391,-114.0733,32.56,17,20,3.6,US,2023-07-03 21:59:42
62,medicine hat,50.0501,-110.6683,24.24,26,75,5.14,CA,2023-07-03 21:59:43
63,hobart,-42.8794,147.3294,5.03,89,100,1.54,AU,2023-07-03 21:59:43
64,alofi,-19.0595,-169.9187,24.94,83,75,6.14,NU,2023-07-03 21:59:43
65,hasaki,35.7333,140.8333,25.68,89,98,7.59,JP,2023-07-03 21:59:43
66,khor,47.8861,134.9464,20.94,63,33,2.14,RU,2023-07-03 21:59:44
67,punta arenas,-53.15,-70.9167,3.06,75,0,4.63,CL,2023-07-03 21:59:44
68,ilulissat,69.2167,-51.1,5.35,90,100,1.62,GL,2023-07-03 21:59:44
69,bristol,41.8334,-71.1662,28.47,76,94,1.34,US,2023-07-03 21:59:20
70,khatanga,71.9667,102.5,15.04,64,98,2.51,RU,2023-07-03 21:59:44
71,thompson,55.7435,-97.8558,16.09,88,100,2.57,CA,2023-07-03 21:59:44
72,rudbar,30.15,62.6,33.17,20,4,5.48,AF,2023-07-03 21:59:44
73,east london,-33.0153,27.9116,16.63,80,77,4.42,ZA,2023-07-03 21:59:45
74,petropavl,54.8753,69.1628,17.36,75,87,0.83,KZ,2023-07-03 21:59:45
75,kieta,-6.2167,155.6333,28.21,81,36,4.41,PG,2023-07-03 21:59:45
76,ouesso,1.6136,16.0517,23.93,73,24,0.37,CG,2023-07-03 21:59:45
77,shido,34.3233,134.1733,24.0,100,75,2.06,JP,2023-07-03 21:59:45
78,severo-kurilsk,50.6789,156.125,10.91,95,56,1.59,RU,2023-07-03 21:59:46
79,hilo,19.7297,-155.09,34.04,85,91,4.47,US,2023-07-03 21:59:46
80,new norfolk,-42.7826,147.0587,4.84,76,100,0.8,AU,2023-07-03 21:59:46
81,victoria,22.2855,114.1577,28.51,90,26,2.68,HK,2023-07-03 21:57:32
82,makat,47.6469,53.3463,26.77,38,23,2.65,KZ,2023-07-03 21:59:46
83,port lincoln,-34.7333,135.8667,8.98,80,0,3.8,AU,2023-07-03 21:59:46
84,hofn,64.2539,-15.2082,8.67,79,99,1.39,IS,2023-07-03 21:59:47
85,vestmannaeyjar,63.4427,-20.2734,12.87,66,29,8.03,IS,2023-07-03 21:59:47
86,yamada,39.4667,141.95,19.83,91,68,2.52,JP,2023-07-03 21:59:47
87,brae,60.3964,-1.353,11.22,77,100,6.45,GB,2023-07-03 21:59:48
88,tigil,57.8,158.6667,21.11,61,4,5.49,RU,2023-07-03 21:59:48
89,koppies,-27.2418,27.5742,9.71,33,0,2.18,ZA,2023-07-03 21:59:48
90,camacha,33.0833,-16.3333,19.68,73,75,4.63,PT,2023-07-03 21:59:48
91,sainte-marie,-20.8968,55.5496,21.07,68,20,5.66,RE,2023-07-03 21:59:48
92,avarua,-21.2078,-159.775,27.03,78,40,2.06,CK,2023-07-03 21:59:48
93,coihaique,-45.5752,-72.0662,2.97,93,100,4.12,CL,2023-07-03 21:59:49
94,port huron,42.9709,-82.4249,26.41,73,0,6.17,US,2023-07-03 21:59:49
95,port alfred,-33.5906,26.891,12.88,95,66,0.89,ZA,2023-07-03 21:59:49
96,marabba,12.35,32.1833,31.27,46,45,3.68,SD,2023-07-03 21:59:49
97,codrington,-38.2667,141.9667,8.28,97,100,2.06,AU,2023-07-03 21:59:49
98,komsomolskiy,40.4272,71.7189,26.4,34,80,3.09,UZ,2023-07-03 21:59:49
99,faya,18.3851,42.4509,23.06,35,31,0.75,SA,2023-07-03 21:59:50
100,kirando,-7.4167,30.6,21.61,50,0,3.93,TZ,2023-07-03 21:59:50
101,port blair,11.6667,92.75,26.02,83,40,6.17,IN,2023-07-03 21:59:50
102,talnakh,69.4865,88.3972,15.67,63,85,0.76,RU,2023-07-03 21:59:50
103,berlevag,70.8578,29.0864,8.0,93,100,2.06,NO,2023-07-03 21:59:50
104,raton,36.9034,-104.4391,28.98,16,9,3.78,US,2023-07-03 21:59:50
105,saint george,37.1041,-113.5841,43.01,9,1,3.58,US,2023-07-03 21:59:51
106,port elizabeth,-33.918,25.5701,13.51,97,20,4.12,ZA,2023-07-03 21:58:08
107,bilibino,68.0546,166.4372,11.25,91,100,1.57,RU,2023-07-03 21:59:51
108,yulara,-25.2406,130.9889,6.94,83,0,2.33,AU,2023-07-03 21:59:51
109,janesville,42.6828,-89.0187,32.14,47,18,1.14,US,2023-07-03 21:59:51
110,chuy,-33.6971,-53.4616,14.73,94,52,2.56,UY,2023-07-03 21:59:51
111,orito,0.6766,-76.8771,27.66,77,79,0.44,CO,2023-07-03 21:59:52
112,longyearbyen,78.2186,15.6401,10.91,43,0,6.69,SJ,2023-07-03 21:57:34
113,narok,-1.0783,35.8601,13.54,84,98,3.21,KE,2023-07-03 21:59:52
114,lebu,-37.6167,-73.65,12.44,84,92,8.01,CL,2023-07-03 21:59:52
115,sao filipe,14.8961,-24.4956,24.89,77,43,3.41,CV,2023-07-03 21:59:52
116,victor harbor,-35.5667,138.6167,8.16,89,40,2.85,AU,2023-07-03 21:59:53
117,inta,66.0317,60.1659,15.56,91,65,3.05,RU,2023-07-03 21:59:53
118,abancay,-13.6339,-72.8814,21.01,42,4,3.04,PE,2023-07-03 21:59:53
119,gejiu,23.306,103.1635,14.76,98,100,1.45,CN,2023-07-03 21:59:53
120,sibolga,1.7427,98.7792,24.81,87,95,0.94,ID,2023-07-03 21:59:53
121,erzin,36.9559,36.2,22.79,88,10,0.25,TR,2023-07-03 21:59:54
122,lagoa,39.05,-27.9833,19.33,67,67,2.4,PT,2023-07-03 21:56:27
123,sivas,39.7916,37.0019,17.9,56,47,2.07,TR,2023-07-03 21:53:19
124,mae ramat,16.984,98.5166,23.28,100,100,0.7,TH,2023-07-03 21:59:54
125,porbandar,21.6422,69.6093,28.26,85,100,4.68,IN,2023-07-03 21:58:22
126,puerto ayora,-0.7393,-90.3518,29.98,86,80,4.92,EC,2023-07-03 21:59:55
127,lokot,52.565,34.5776,15.24,84,47,2.33,RU,2023-07-03 21:59:55
128,provideniya,64.3833,-173.3,8.06,100,100,3.13,RU,2023-07-03 21:55:16
129,bosaso,11.2842,49.1816,32.58,43,5,8.46,SO,2023-07-03 21:59:55
130,barrow,71.2906,-156.7887,11.47,55,61,5.95,US,2023-07-03 21:59:55
131,buraydah,26.326,43.975,33.25,13,2,2.32,SA,2023-07-03 21:48:21
132,airai,-8.9266,125.4092,15.8,97,99,1.29,TL,2023-07-03 21:59:56
133,balgazyn,51.0,95.2,7.23,91,86,1.09,RU,2023-07-03 21:59:56
134,ornskoldsvik,63.2909,18.7153,10.53,100,100,4.12,SE,2023-07-03 21:59:56
135,vila franca do campo,37.7167,-25.4333,20.23,73,100,2.06,PT,2023-07-03 21:59:56
136,kidal,18.4411,1.4078,31.96,35,48,6.04,ML,2023-07-03 21:59:56
137,tasiilaq,65.6145,-37.6368,7.47,61,4,2.47,GL,2023-07-03 21:59:56
138,fukue,32.6881,128.8419,24.76,92,100,1.99,JP,2023-07-03 21:59:57
139,newport,51.5877,-2.9984,15.38,79,27,5.32,GB,2023-07-03 21:57:06
140,havelock,34.8791,-76.9013,28.32,84,48,3.58,US,2023-07-03 21:59:57
141,sur,22.5667,59.5289,28.71,75,91,4.0,OM,2023-07-03 21:59:57
142,brufut,13.3814,-16.7518,28.05,83,75,0.0,GM,2023-07-03 21:59:57
143,katherine,-14.4667,132.2667,14.18,82,89,3.09,AU,2023-07-03 21:59:57
144,lavrentiya,65.5833,-171.0,8.07,89,100,1.63,RU,2023-07-03 21:59:58
145,traverse city,44.7631,-85.6206,29.35,57,5,0.45,US,2023-07-03 21:59:58
146,taoudenni,22.6783,-3.9836,42.01,12,4,4.53,ML,2023-07-03 21:59:58
147,marystown,47.1666,-55.1483,15.48,100,100,0.89,CA,2023-07-03 21:59:59
148,magadan,59.5667,150.8,19.74,81,22,2.44,RU,2023-07-03 21:59:59
149,bengkulu,-3.8004,102.2655,23.79,91,70,2.41,ID,2023-07-03 21:59:59
150,olafsvik,64.8945,-23.7142,11.2,69,95,5.29,IS,2023-07-03 21:59:59
151,makakilo city,21.3469,-158.0858,29.2,63,36,6.34,US,2023-07-03 21:59:59
152,mecca,21.4267,39.8261,31.52,28,43,2.08,SA,2023-07-03 21:59:59
153,mar del plata,-38.0023,-57.5575,16.72,96,100,2.24,AR,2023-07-03 21:59:32
154,kahului,20.8947,-156.47,28.25,79,8,5.36,US,2023-07-03 22:00:00
155,pundaguitan,6.3711,126.1689,27.31,81,100,4.25,PH,2023-07-03 22:00:00
156,hithadhoo,-0.6,73.0833,27.11,76,100,5.89,MV,2023-07-03 21:58:34
157,ponazyrevo,58.3578,46.3142,13.05,95,1,2.06,RU,2023-07-03 22:00:01
158,lanzhou,36.0564,103.7922,17.15,61,0,0.83,CN,2023-07-03 22:00:02
159,novaya ladoga,60.1025,32.3019,14.22,75,97,6.71,RU,2023-07-03 22:00:03
160,cayenne,4.9333,-52.3333,25.02,88,75,1.03,GF,2023-07-03 21:58:02
161,oistins,13.0667,-59.5333,27.31,85,100,9.8,BB,2023-07-03 22:00:05
162,leninskiy,54.2781,37.4558,13.85,80,7,1.77,RU,2023-07-03 22:00:05
163,maryborough,-25.5333,152.7,18.52,89,100,1.74,AU,2023-07-03 22:00:07
164,husavik,66.0449,-17.3389,5.96,80,100,6.22,IS,2023-07-03 22:00:09
165,amalapuram,16.5833,82.0167,26.1,86,100,1.98,IN,2023-07-03 22:00:10
166,moindou,-21.6924,165.677,20.58,65,100,1.42,NC,2023-07-03 22:00:11
167,monrovia,6.3005,-10.7969,25.87,83,100,3.4,LR,2023-07-03 22:00:11
168,kaitangata,-46.2817,169.8464,9.14,83,99,9.09,NZ,2023-07-03 22:00:11
169,sola,-13.8833,167.55,24.6,75,100,10.79,VU,2023-07-03 22:00:12
170,vaini,-21.2,-175.2,22.58,55,100,3.34,TO,2023-07-03 22:00:12
171,lucapa,-8.4192,20.7447,18.41,32,0,2.07,AO,2023-07-03 22:00:12
172,barillas,15.8036,-91.3158,19.21,99,100,2.14,GT,2023-07-03 22:00:12
173,narsaq,60.9167,-46.05,11.12,92,100,2.53,GL,2023-07-03 22:00:13
174,sungaipenuh,-2.0833,101.3833,17.46,97,21,2.0,ID,2023-07-03 22:00:13
175,esperance,-33.8667,121.9,12.31,76,100,9.56,AU,2023-07-03 22:00:13
176,flin flon,54.7682,-101.865,14.77,83,83,5.89,CA,2023-07-03 22:00:13
177,kattivakkam,13.2167,80.3167,28.93,80,100,6.2,IN,2023-07-03 22:00:13
178,klaksvik,62.2266,-6.589,8.51,77,100,8.42,FO,2023-07-03 22:00:14
179,chiredzi,-21.05,31.6667,13.54,55,0,1.61,ZW,2023-07-03 22:00:14
180,nueva loja,0.0847,-76.8828,29.05,69,86,0.46,EC,2023-07-03 22:00:14
181,paita,-5.0892,-81.1144,24.05,74,9,8.08,PE,2023-07-03 22:00:14
182,stabat,3.761,98.4513,25.66,97,72,1.09,ID,2023-07-03 22:00:15
183,lata,40.1629,-8.3327,17.67,98,18,1.68,PT,2023-07-03 22:00:15
184,coquimbo,-29.9533,-71.3436,14.22,85,13,7.41,CL,2023-07-03 22:00:15
185,faanui,-16.4833,-151.75,26.9,81,9,9.09,PF,2023-07-03 22:00:15
186,nouadhibou,20.931,-17.0347,20.58,91,18,7.6,MR,2023-07-03 22:00:15
187,kijang,35.2442,129.2139,23.31,91,100,1.11,KR,2023-07-03 22:00:16
188,nishihara,26.1842,127.7558,27.6,89,75,8.23,JP,2023-07-03 22:00:16
189,bitung,1.4451,125.1824,24.47,87,100,1.93,ID,2023-07-03 21:55:30
190,labuhan,-6.8844,112.2051,25.95,79,64,5.25,ID,2023-07-03 22:00:16
191,geraldton,-28.7667,114.6,13.23,94,75,6.17,AU,2023-07-03 22:00:16
192,namatanai,-3.6667,152.4333,27.66,76,59,2.59,PG,2023-07-03 22:00:16
193,san ramon de la nueva oran,-23.1322,-64.326,24.68,59,71,1.28,AR,2023-07-03 22:00:17
194,scarborough,54.2797,-0.4044,12.18,78,1,3.13,GB,2023-07-03 21:59:05
195,mackay,-21.15,149.2,19.82,93,99,1.96,AU,2023-07-03 22:00:17
196,nalut,30.3333,10.85,30.94,26,4,3.13,LY,2023-07-03 22:00:17
197,oswego,43.4501,-76.1497,22.47,97,99,1.6,US,2023-07-03 22:00:17
198,nuuk,64.1835,-51.7216,8.82,66,75,9.77,GL,2023-07-03 22:00:18
199,boa vista,2.8197,-60.6733,23.99,94,75,1.03,BR,2023-07-03 21:57:25
200,dorna,47.35,25.4333,11.87,84,1,0.8,RO,2023-07-03 22:00:18
201,campos novos,-27.4017,-51.225,11.78,88,16,3.05,BR,2023-07-03 22:00:19
202,arraial do cabo,-22.9661,-42.0278,16.92,77,20,0.0,BR,2023-07-03 22:00:19
203,fernie,49.5,-115.0687,22.54,25,50,2.24,CA,2023-07-03 22:00:19
204,skagen,57.7209,10.5839,13.8,76,28,12.18,DK,2023-07-03 22:00:19
205,kratovo,42.0792,22.1814,16.33,80,13,1.68,MK,2023-07-03 22:00:19
206,dunedin,-45.8742,170.5036,11.0,59,100,11.62,NZ,2023-07-03 22:00:20
207,kimbe,-5.5502,150.1429,26.99,76,97,1.25,PG,2023-07-03 22:00:20
208,kawalu,-7.3817,108.2082,21.41,93,88,1.39,ID,2023-07-03 22:00:20
209,kupang,-10.1667,123.5833,25.32,88,75,5.14,ID,2023-07-03 22:00:20
210,fare,-16.7,-151.0167,26.69,80,8,8.36,PF,2023-07-03 22:00:20
211,filadelfia,39.9523,-75.1638,33.41,55,71,2.24,US,2023-07-03 22:00:21
212,vila velha,-20.3297,-40.2925,19.97,74,20,0.89,BR,2023-07-03 22:00:15
213,laukaa,58.7372,29.8453,12.39,82,53,4.39,RU,2023-07-03 22:00:21
214,kodiak,57.79,-152.4072,9.73,93,100,3.6,US,2023-07-03 22:00:21
215,college,64.8569,-147.8028,25.18,42,100,2.53,US,2023-07-03 22:00:22
216,whitehorse,60.7161,-135.0538,25.05,35,10,6.71,CA,2023-07-03 22:00:22
217,copiapo,-27.3667,-70.3333,12.83,49,9,1.68,CL,2023-07-03 21:58:57
218,chojnice,53.6955,17.557,11.78,75,29,3.35,PL,2023-07-03 22:00:22
219,grindavik,63.8424,-22.4338,11.26,66,0,10.8,IS,2023-07-03 22:00:22
220,maldonado,-34.6667,-54.9167,16.79,93,95,2.95,UY,2023-07-03 22:00:23
221,vardo,70.3705,31.1107,7.99,100,100,3.6,NO,2023-07-03 22:00:23
222,banon,40.8382,-1.1909,19.59,83,96,2.57,ES,2023-07-03 22:00:23
223,aguimes,27.9054,-15.4461,22.35,73,20,8.75,ES,2023-07-03 22:00:24
224,pangnirtung,66.1451,-65.7125,6.28,81,88,1.4,CA,2023-07-03 22:00:24
225,benjamin constant,-4.3831,-70.0311,27.3,75,79,1.57,BR,2023-07-03 22:00:24
226,amuntai,-2.4177,115.2494,22.82,99,98,0.3,ID,2023-07-03 22:00:24
227,georgetown,5.4112,100.3354,27.96,89,20,0.0,MY,2023-07-03 22:00:24
228,benin,9.5,2.25,24.09,86,7,1.94,BJ,2023-07-03 22:00:25
229,dingle,10.9995,122.6711,24.9,92,84,2.31,PH,2023-07-03 22:00:25
230,kajiado,-1.8524,36.7768,12.36,91,65,3.11,KE,2023-07-03 22:00:25
231,tonj,7.2737,28.6822,23.1,82,36,1.8,SS,2023-07-03 22:00:25
232,laguna,38.421,-121.4238,39.19,22,0,6.17,US,2023-07-03 22:00:25
233,erenhot,43.6475,111.9767,18.2,36,0,5.24,CN,2023-07-03 22:00:26
234,souillac,-20.5167,57.5167,21.83,78,62,8.11,MU,2023-07-03 22:00:26
235,nioki,-2.7167,17.6833,25.23,37,11,1.4,CD,2023-07-03 22:00:26
236,atasu,48.6814,71.6433,19.61,54,20,3.81,KZ,2023-07-03 22:00:26
237,presidencia roque saenz pena,-26.7852,-60.4388,23.92,44,7,3.09,AR,2023-07-03 22:00:26
238,chapais,49.7834,-74.8492,26.19,48,96,1.52,CA,2023-07-03 22:00:27
239,yaan,7.3833,8.5667,24.29,92,96,2.12,NG,2023-07-03 22:00:27
240,kununurra,-15.7667,128.7333,15.99,77,40,3.09,AU,2023-07-03 22:00:27
241,kirakira,-10.4544,161.9205,28.03,80,100,11.02,SB,2023-07-03 22:00:27
242,preobrazheniye,42.9019,133.9064,20.23,88,30,0.34,RU,2023-07-03 22:00:27
243,fort nelson,58.8053,-122.7002,24.68,25,69,1.96,CA,2023-07-03 22:00:28
244,luderitz,-26.6481,15.1594,17.39,59,0,3.84,NA,2023-07-03 22:00:28
245,karmala,18.4167,75.2,25.55,81,93,6.49,IN,2023-07-03 22:00:28
246,asfi,32.2994,-9.2372,21.5,94,2,5.36,MA,2023-07-03 22:00:28
247,ponta do sol,32.6667,-17.1,23.17,81,40,3.28,PT,2023-07-03 22:00:28
248,folldal,62.1325,9.9968,9.26,93,100,0.52,NO,2023-07-03 22:00:29
249,port hedland,-20.3167,118.5667,10.03,93,5,2.06,AU,2023-07-03 22:00:29
250,phan thiet,10.9333,108.1,25.06,90,100,1.5,VN,2023-07-03 22:00:29
251,fortuna,40.5982,-124.1573,19.25,76,0,7.2,US,2023-07-03 22:00:29
252,naron,43.5167,-8.1528,19.77,85,15,2.61,ES,2023-07-03 22:00:30
253,yabrud,33.9674,36.6574,21.54,35,0,1.35,SY,2023-07-03 22:00:30
254,paamiut,61.994,-49.6678,4.02,98,100,3.79,GL,2023-07-03 22:00:30
255,henderson,36.0397,-114.9819,45.46,19,0,3.6,US,2023-07-03 21:57:01
256,iranshahr,27.2025,60.6848,36.4,34,20,4.81,IR,2023-07-03 22:00:31
257,algiers,36.7525,3.042,23.9,78,0,0.51,DZ,2023-07-03 21:54:53
258,dong xoai,11.5333,106.9167,23.64,97,100,0.9,VN,2023-07-03 22:00:31
259,sechura,-5.5569,-80.8222,22.74,83,15,7.41,PE,2023-07-03 22:00:31
260,ostrovnoy,68.0531,39.5131,8.96,91,43,1.34,RU,2023-07-03 22:00:31
261,kruisfontein,-34.0033,24.7314,10.81,86,95,2.83,ZA,2023-07-03 21:57:04
262,myrtle beach,33.6891,-78.8867,30.19,87,20,6.17,US,2023-07-03 22:00:32
263,rovaniemi,66.5,25.7167,15.67,55,0,3.6,FI,2023-07-03 21:55:51
264,hambantota,6.1241,81.1185,27.19,89,75,5.66,LK,2023-07-03 22:00:32
265,tevaitoa,-16.7833,-151.5,26.83,81,60,9.1,PF,2023-07-03 22:00:32
266,khandyga,62.6667,135.6,23.51,58,33,2.14,RU,2023-07-03 22:00:32
267,asau,46.4333,26.4,18.51,94,0,1.33,RO,2023-07-03 22:00:33
268,bongaree,-27.0797,153.1586,17.9,93,100,1.01,AU,2023-07-03 22:00:33
269,hohhot,40.8106,111.6522,15.79,77,0,1.53,CN,2023-07-03 22:00:33
270,shambu,9.5667,37.1,10.76,89,91,0.29,ET,2023-07-03 22:00:34
271,matucana,-11.85,-76.4,17.1,59,27,3.23,PE,2023-07-03 22:00:34
272,norman wells,65.282,-126.8329,28.06,27,42,4.92,CA,2023-07-03 22:00:34
273,mabaruma,8.2,-59.7833,25.23,96,99,1.61,GY,2023-07-03 22:00:35
274,coruripe,-10.1256,-36.1756,21.41,93,86,2.25,BR,2023-07-03 22:00:35
275,cairns,-16.9167,145.7667,24.48,100,100,1.03,AU,2023-07-03 22:00:35
276,neuquen,-38.9516,-68.0591,14.16,33,3,5.83,AR,2023-07-03 22:00:35
277,valparaiso,-33.0393,-71.6273,14.8,82,0,0.0,CL,2023-07-03 22:00:17
278,bathsheba,13.2167,-59.5167,27.61,84,100,10.63,BB,2023-07-03 22:00:36
279,chumikan,54.7183,135.315,12.66,78,22,0.94,RU,2023-07-03 22:00:36
280,umea,63.8284,20.2597,11.96,87,40,4.12,SE,2023-07-03 21:57:14
281,jumla,29.2747,82.1838,16.27,94,61,0.37,NP,2023-07-03 22:00:36
282,ossora,59.2353,163.0719,13.7,74,61,4.93,RU,2023-07-03 21:56:22
283,salalah,17.0151,54.0924,26.59,89,93,3.87,OM,2023-07-03 21:58:51
284,noyabrsk,63.1994,75.4507,17.06,77,40,5.15,RU,2023-07-03 22:00:37
285,banda aceh,5.5577,95.3222,25.94,84,94,3.19,ID,2023-07-03 21:58:09
286,brownwood,31.7093,-98.9912,36.62,37,0,4.63,US,2023-07-03 22:00:13
287,xuddur,4.1213,43.8894,22.83,68,85,7.27,SO,2023-07-03 22:00:37
288,mount isa,-20.7333,139.5,6.87,100,75,0.51,AU,2023-07-03 22:00:37
289,liverpool,53.4106,-2.9779,14.34,75,20,5.66,GB,2023-07-03 21:59:50
290,palmer,42.1584,-72.3287,28.79,66,75,0.49,US,2023-07-03 22:00:38
291,smithers,54.7804,-127.1743,26.22,29,2,1.46,CA,2023-07-03 22:00:38
292,bambous virieux,-20.3428,57.7575,20.68,71,74,8.0,MU,2023-07-03 22:00:38
293,gurupa,-1.405,-51.64,27.52,71,100,0.49,BR,2023-07-03 22:00:39
294,sarankhola,22.3082,89.7897,27.42,91,100,2.06,BD,2023-07-03 22:00:39
295,wukari,7.85,9.7833,25.17,85,32,2.78,NG,2023-07-03 22:00:39
296,nizhniy kuranakh,58.8353,125.4869,20.16,90,21,0.23,RU,2023-07-03 22:00:40
297,sisimiut,66.9395,-53.6735,7.61,89,100,2.65,GL,2023-07-03 22:00:40
298,pacific grove,36.6177,-121.9166,25.36,81,66,2.24,US,2023-07-03 22:00:40
299,aklavik,68.2191,-135.0107,29.36,29,11,4.78,CA,2023-07-03 22:00:40
300,lasa,46.6166,10.7002,16.12,94,88,2.26,IT,2023-07-03 22:00:25
301,suozhen,36.9539,118.1047,25.37,93,100,3.44,CN,2023-07-03 22:00:41
302,garowe,8.4054,48.4845,26.6,52,100,10.94,SO,2023-07-03 22:00:41
303,mae hong son,19.3003,97.9685,23.28,98,100,0.65,TH,2023-07-03 22:00:41
304,torbay,47.6666,-52.7314,18.61,78,92,2.24,CA,2023-07-03 22:00:42
305,saldanha,-33.0117,17.9442,14.54,86,8,5.69,ZA,2023-07-03 22:00:42
306,mitsamiouli,-11.3847,43.2844,24.91,67,0,3.39,KM,2023-07-03 22:00:43
307,gabu,12.2833,-14.2167,25.45,90,96,3.86,GW,2023-07-03 22:00:43
308,luchegorsk,46.4764,134.2569,18.84,82,2,1.13,RU,2023-07-03 21:58:19
309,inhambane,-23.865,35.3833,16.69,85,0,0.42,MZ,2023-07-03 22:00:43
310,zhigansk,66.7697,123.3711,9.29,62,3,5.7,RU,2023-07-03 22:00:44
311,maningrida,-12.0667,134.2667,19.23,84,88,4.63,AU,2023-07-03 22:00:44
312,gerash,27.6652,54.1371,30.7,39,17,1.87,IR,2023-07-03 22:00:44
313,ikot ekpene,5.1794,7.7108,23.43,96,100,2.56,NG,2023-07-03 22:00:44
314,valverde del camino,37.5751,-6.7543,23.91,39,0,2.89,ES,2023-07-03 22:00:44
315,batagay-alyta,67.8006,130.4114,6.42,83,99,2.78,RU,2023-07-03 22:00:44
316,la ronge,55.1001,-105.2842,8.27,92,100,6.44,CA,2023-07-03 22:00:45
317,birin,26.8865,88.0718,19.29,93,100,1.1,NP,2023-07-03 22:00:45
318,la tiza,7.75,-80.2833,26.35,84,100,0.79,PA,2023-07-03 22:00:45
319,mahebourg,-20.4081,57.7,20.7,73,59,9.04,MU,2023-07-03 22:00:46
320,santiago del estero,-27.7951,-64.2615,25.95,41,23,4.82,AR,2023-07-03 21:56:16
321,kondopoga,62.2057,34.2614,12.96,75,63,3.96,RU,2023-07-03 22:00:46
322,jawor,51.0513,16.1935,15.49,68,38,3.78,PL,2023-07-03 22:00:46
323,trincomalee,8.5711,81.2335,26.88,79,93,10.74,LK,2023-07-03 22:00:46
324,pisco,-13.7,-76.2167,20.57,78,3,2.92,PE,2023-07-03 22:00:47
325,saint-francois,46.4154,3.9054,16.69,94,0,1.54,FR,2023-07-03 22:00:47
326,bara,10.3744,10.7288,29.06,52,82,2.71,NG,2023-07-03 22:00:47
327,ginda,30.6945,78.4932,18.08,93,56,1.14,IN,2023-07-03 22:00:47
328,huilong,31.8111,121.655,28.85,91,100,2.82,CN,2023-07-03 22:00:48
329,amapa,1.0,-52.0,24.03,89,36,1.31,BR,2023-07-03 22:00:48
330,bac lieu,9.285,105.7244,25.79,89,100,2.38,VN,2023-07-03 22:00:48
331,nurota,40.5614,65.6886,24.13,28,0,4.95,UZ,2023-07-03 22:00:48
332,omagari,39.45,140.4833,19.42,89,30,0.3,JP,2023-07-03 22:00:48
333,nhulunbuy,-12.2333,136.7667,23.34,88,100,4.63,AU,2023-07-03 22:00:48
334,kedrovyy,56.1667,91.8167,12.23,83,100,0.95,RU,2023-07-03 22:00:49
335,sabang,5.8933,95.3214,27.87,77,99,5.34,ID,2023-07-03 22:00:49
336,tiassale,5.8983,-4.8283,23.12,98,100,1.27,CI,2023-07-03 22:00:49
337,baruun-urt,46.6806,113.2792,13.85,88,2,3.39,MN,2023-07-03 22:00:49
338,katsuura,35.1333,140.3,24.01,94,76,3.61,JP,2023-07-03 22:00:49
339,santa rosa,14.3122,121.1114,28.86,84,100,1.92,PH,2023-07-03 22:00:50
340,andra,62.5147,65.8878,18.22,87,75,2.09,RU,2023-07-03 22:00:50
341,funtua,11.5233,7.3081,26.75,60,33,4.75,NG,2023-07-03 22:00:51
342,nanyamba,-10.6833,39.8333,17.21,98,11,2.17,TZ,2023-07-03 22:00:51
343,kudahuvadhoo,2.6708,72.8944,25.84,83,100,5.02,MV,2023-07-03 22:00:51
344,pemangkat,1.1667,108.9667,27.33,82,100,4.87,ID,2023-07-03 22:00:51
345,mutoko,-17.397,32.2268,9.11,84,25,1.55,ZW,2023-07-03 22:00:51
346,weligama,5.9667,80.4167,25.85,87,100,7.56,LK,2023-07-03 22:00:51
347,seoni,22.0833,79.5333,28.04,69,100,1.46,IN,2023-07-03 22:00:52
348,batagay,67.6333,134.6333,7.36,86,100,3.65,RU,2023-07-03 22:00:52
349,ketchikan,55.3422,-131.6461,15.53,70,14,1.74,US,2023-07-03 22:00:52
350,maksatikha,57.797,35.8825,15.38,63,87,2.1,RU,2023-07-03 22:00:52
351,shenjiamen,29.9576,122.298,24.23,97,98,3.4,CN,2023-07-03 22:00:52
352,wajir,1.7471,40.0573,23.66,63,85,7.86,KE,2023-07-03 22:00:53
353,atambua,-9.1061,124.8925,22.93,91,96,2.04,ID,2023-07-03 22:00:53
354,cabedelo,-6.9811,-34.8339,23.4,91,100,4.35,BR,2023-07-03 22:00:53
355,madoc,44.5084,-77.4745,29.06,54,85,0.27,CA,2023-07-03 22:00:53
356,dukat,62.55,155.55,24.36,45,9,0.78,RU,2023-07-03 22:00:53
357,kropotkin,45.4375,40.5756,21.87,71,15,1.83,RU,2023-07-03 22:00:54
358,panaba,21.2833,-88.2667,26.86,89,94,2.96,MX,2023-07-03 22:00:54
359,naze,28.3667,129.4833,26.19,87,100,10.73,JP,2023-07-03 22:00:54
360,kargil,34.5667,76.1,13.92,49,100,2.04,IN,2023-07-03 22:00:54
361,xining,36.6167,101.7667,8.4,65,0,1.42,CN,2023-07-03 22:00:54
362,yuli,9.6989,10.2744,26.85,72,86,1.83,NG,2023-07-03 22:00:55
363,liwale,-9.7667,37.9333,16.79,79,52,1.36,TZ,2023-07-03 22:00:55
364,tilichiki,60.4667,166.1,8.86,85,100,2.28,RU,2023-07-03 22:00:55
365,tenosique,17.4833,-91.4333,32.24,62,93,3.48,MX,2023-07-03 22:00:55
366,norden,53.6,7.2,12.19,96,97,9.02,DE,2023-07-03 21:56:01
367,eyl,7.9803,49.8164,25.95,69,49,11.82,SO,2023-07-03 21:57:03
368,sistranda,63.7256,8.834,11.98,66,100,3.5,NO,2023-07-03 22:00:49
369,holguin,20.8872,-76.2631,28.68,72,92,4.67,CU,2023-07-03 22:00:56
370,nabire,-3.3667,135.4833,25.97,84,100,1.96,ID,2023-07-03 22:00:56
371,druzhba,52.0428,33.9453,15.98,80,45,2.05,UA,2023-07-03 22:00:56
372,kortkeros,61.8106,51.5806,16.0,81,90,2.02,RU,2023-07-03 22:00:57
373,dolores,-36.3132,-57.6792,14.97,95,96,3.41,AR,2023-07-03 22:00:57
374,jamiltepec,16.2833,-97.8167,28.04,69,55,2.95,MX,2023-07-03 22:00:57
375,muleba,-1.8397,31.6544,19.57,59,70,1.18,TZ,2023-07-03 22:00:57
376,saint-pierre,-21.3393,55.4781,19.82,83,20,4.63,RE,2023-07-03 21:58:52
377,chapaevsk,52.9813,49.7112,18.52,92,100,2.85,RU,2023-07-03 22:00:57
378,guerrero negro,27.9769,-114.0611,18.5,81,12,6.78,MX,2023-07-03 22:00:58
379,thunder bay,48.4001,-89.3168,26.2,60,99,3.54,CA,2023-07-03 22:00:58
380,fort wellington,6.4,-57.6,25.44,88,97,2.66,GY,2023-07-03 22:00:58
381,gorazde,43.6669,18.9764,17.32,96,5,0.51,BA,2023-07-03 22:00:58
382,rapid valley,44.0625,-103.1463,28.76,63,20,6.17,US,2023-07-03 22:00:58
383,ambon,-3.6954,128.1814,24.08,94,40,3.6,ID,2023-07-03 22:00:59
384,campestre,-21.7111,-46.2464,12.05,73,6,1.56,BR,2023-07-03 22:00:59
385,camana,-16.6228,-72.7111,18.22,84,8,3.1,PE,2023-07-03 22:00:59
386,tiznit,29.5833,-9.5,24.87,49,0,1.24,MA,2023-07-03 22:01:00
387,zonguldak,41.25,31.8333,16.28,89,81,1.82,TR,2023-07-03 21:56:14
388,iskateley,67.6803,53.1512,13.21,97,77,2.72,RU,2023-07-03 21:57:19
389,tahoua,14.8888,5.2692,26.37,60,100,8.61,NE,2023-07-03 22:01:00
390,grand-lahou,5.1367,-5.0242,24.43,90,98,1.69,CI,2023-07-03 22:01:00
391,purranque,-40.9167,-73.1667,9.04,97,100,0.75,CL,2023-07-03 22:01:01
392,nova olimpia,-14.7972,-57.2881,24.82,31,1,0.53,BR,2023-07-03 22:01:01
393,karratha,-20.7377,116.8463,19.0,57,25,5.71,AU,2023-07-03 22:01:01
394,gravdal,68.1214,13.5031,13.94,62,0,3.6,NO,2023-07-03 22:01:01
395,sibu,2.3,111.8167,22.7,96,100,1.05,MY,2023-07-03 22:01:02
396,burns lake,54.2331,-125.7533,25.33,26,7,0.84,CA,2023-07-03 22:01:02
397,tessalit,20.1986,1.0114,36.36,21,74,5.86,ML,2023-07-03 22:01:02
398,cidreira,-30.1811,-50.2056,16.99,88,4,4.82,BR,2023-07-03 22:01:02
399,prostejov,49.4719,17.1118,21.03,70,96,0.45,CZ,2023-07-03 21:56:46
400,lanxi,29.2195,119.477,26.6,88,100,1.5,CN,2023-07-03 22:01:02
401,avera,33.194,-82.5271,32.83,39,93,3.48,US,2023-07-03 22:01:03
402,solnechnyy,50.7214,136.6319,21.3,61,15,2.13,RU,2023-07-03 22:01:03
403,qaqortoq,60.7167,-46.0333,3.47,94,100,1.82,GL,2023-07-03 22:01:03
404,svolvaer,68.2342,14.5683,15.98,51,54,5.14,NO,2023-07-03 22:01:03
405,rio gallegos,-51.6226,-69.2181,3.25,73,98,5.96,AR,2023-07-03 22:01:03
406,hervey bay,-25.2986,152.8535,20.3,83,97,5.62,AU,2023-07-03 22:01:04
407,iralaya,15.0,-83.2333,27.47,85,100,4.14,HN,2023-07-03 22:01:04
408,clyde river,70.4692,-68.5914,0.78,99,100,3.48,CA,2023-07-03 22:01:04
409,broken hill,-31.95,141.4333,9.16,94,100,2.15,AU,2023-07-03 22:01:05
410,progreso,21.2833,-89.6667,25.06,78,100,7.15,MX,2023-07-03 22:01:05
411,shubarkuduk,49.1447,56.4872,20.66,59,17,2.9,KZ,2023-07-03 22:01:05
412,pilikwe,-22.799,27.1938,13.87,67,20,2.59,BW,2023-07-03 22:01:05
413,beloha,-25.1667,45.05,17.39,73,0,4.8,MG,2023-07-03 22:01:05
414,linhares,-19.3911,-40.0722,19.92,57,31,5.07,BR,2023-07-03 22:01:06
415,mercedes,-34.6515,-59.4307,18.91,81,88,3.16,AR,2023-07-03 22:01:06
416,porto seguro,-16.4497,-39.0647,20.29,73,40,1.54,BR,2023-07-03 22:01:06
417,siva,29.2041,25.5195,30.36,44,0,6.79,EG,2023-07-03 22:01:06
418,sisophon,13.5859,102.9737,24.39,85,100,0.76,KH,2023-07-03 22:01:06
419,northam,51.0333,-4.2167,15.14,80,73,7.25,GB,2023-07-03 22:01:06
420,tabuk,17.4189,121.4443,23.34,92,46,1.01,PH,2023-07-03 22:01:07
421,wanaka,-44.7,169.15,6.17,75,3,0.89,NZ,2023-07-03 22:01:07
422,draguignan,43.5333,6.4667,24.31,62,0,3.6,FR,2023-07-03 22:01:08
423,ucluelet,48.9329,-125.5528,18.43,61,0,4.04,CA,2023-07-03 22:01:08
424,anupgarh,29.1911,73.2086,37.38,36,11,8.93,IN,2023-07-03 22:01:08
425,nikolskoye,59.7035,30.7861,11.56,86,77,5.25,RU,2023-07-03 22:01:08
426,puerto carreno,6.189,-67.4859,28.55,78,69,3.05,CO,2023-07-03 22:01:08
427,silver city,32.7701,-108.2803,30.35,30,0,8.23,US,2023-07-03 22:01:09
428,abu dhabi,24.4667,54.3667,33.86,70,0,2.06,AE,2023-07-03 21:58:02
429,plavinas,56.6178,25.7255,13.77,69,5,4.95,LV,2023-07-03 22:01:09
430,kozhva,65.1073,57.0459,14.8,94,34,2.08,RU,2023-07-03 22:01:09
431,cheremukhovo,60.3484,59.9851,14.4,91,1,1.37,RU,2023-07-03 22:01:09
432,dowa,-13.654,33.9375,13.4,57,36,0.81,MW,2023-07-03 22:01:10
433,isoka,-10.1606,32.6335,10.44,74,0,0.23,ZM,2023-07-03 22:01:06
434,imeni poliny osipenko,52.4201,136.4853,19.19,65,14,2.06,RU,2023-07-03 22:01:10
435,horta,38.5333,-28.6333,20.57,77,100,0.45,PT,2023-07-03 22:01:11
436,alekseyevka,50.6309,38.6903,18.57,86,98,0.68,RU,2023-07-03 22:01:11
437,potiskum,11.7091,11.0694,31.08,41,64,4.41,NG,2023-07-03 22:01:11
438,anori,-3.7728,-61.6442,27.86,66,80,1.0,BR,2023-07-03 22:01:11
439,mehran,33.1222,46.1646,32.51,14,0,6.75,IR,2023-07-03 22:01:11
440,magistralnyy,56.1725,107.4458,14.83,95,100,1.85,RU,2023-07-03 22:01:11
441,hun,29.1268,15.9477,29.76,32,0,4.02,LY,2023-07-03 22:01:12
442,vanimo,-2.6741,141.3028,26.41,85,56,3.15,PG,2023-07-03 22:01:12
443,touros,-5.1989,-35.4608,25.21,85,52,7.22,BR,2023-07-03 21:58:17
444,fayetteville,35.0527,-78.8784,35.33,54,0,4.63,US,2023-07-03 22:01:12
445,kolpashevo,58.3131,82.9089,12.53,78,5,2.1,RU,2023-07-03 22:01:12
446,alta floresta,-9.8756,-56.0861,25.67,39,1,1.16,BR,2023-07-03 22:01:13
447,terney,45.0503,136.6092,17.26,89,83,1.16,RU,2023-07-03 22:01:13
448,agadir,30.4202,-9.5982,22.25,76,2,1.81,MA,2023-07-03 21:58:49
449,omsukchan,62.5333,155.8,22.06,50,9,2.27,RU,2023-07-03 22:01:13
450,saint-gaudens,43.0833,0.6667,16.12,95,80,1.34,FR,2023-07-03 22:00:05
451,simdega,22.6167,84.5167,26.25,83,89,2.05,IN,2023-07-03 22:01:13
452,pandamatenga,-18.5278,25.627,13.49,49,0,1.15,BW,2023-07-03 22:01:14
453,verkhoyansk,67.5447,133.385,7.62,89,100,4.69,RU,2023-07-03 22:00:10
454,namtsy,62.7161,129.6658,22.4,57,87,4.21,RU,2023-07-03 22:01:14
455,libenge,3.65,18.6333,22.92,90,85,1.59,CD,2023-07-03 22:01:14
456,vagur,61.4732,-6.8119,8.9,75,100,6.39,FO,2023-07-03 22:01:14
457,nopalucan,19.2167,-97.8167,19.44,54,64,2.61,MX,2023-07-03 22:01:15
458,bielsk podlaski,52.7651,23.1865,17.79,76,61,3.27,PL,2023-07-03 21:57:57
459,lompoc,34.6391,-120.4579,35.01,70,20,3.6,US,2023-07-03 22:01:15
460,nichinan,31.6,131.3667,24.52,94,100,2.12,JP,2023-07-03 22:01:15
461,walvis bay,-22.9575,14.5053,16.53,72,0,3.09,NA,2023-07-03 21:56:41
462,toktogul,41.8708,72.9402,19.48,57,39,0.88,KG,2023-07-03 22:01:15
463,charters towers,-20.1,146.2667,18.45,95,100,2.13,AU,2023-07-03 22:01:16
464,do gonbadan,30.3586,50.7981,28.49,10,1,1.11,IR,2023-07-03 22:00:45
465,ballina,-28.8667,153.5667,14.32,83,100,3.19,AU,2023-07-03 22:01:16
466,warrington,53.3925,-2.5802,14.43,80,20,5.66,GB,2023-07-03 21:59:08
467,mae chan,20.1467,99.8526,24.02,99,100,0.6,TH,2023-07-03 22:01:16
468,bouza,14.4229,6.0428,27.27,58,100,7.47,NE,2023-07-03 22:01:17
469,altay,47.8667,88.1167,14.35,53,74,2.01,CN,2023-07-03 22:01:17
470,zaozerne,45.1582,33.2787,22.01,76,6,0.95,UA,2023-07-03 22:01:17
471,port shepstone,-30.7414,30.455,17.38,61,0,3.47,ZA,2023-07-03 22:01:17
472,boshnyakovo,49.6333,142.1667,12.53,97,100,0.61,RU,2023-07-03 22:01:18
473,shagonar,51.5333,92.8,11.0,81,18,0.65,RU,2023-07-03 22:01:18
474,eunice,30.4944,-92.4176,33.94,50,100,3.32,US,2023-07-03 22:01:18
475,bilma,18.6853,12.9164,34.58,16,23,2.23,NE,2023-07-03 22:01:18
476,sabha,27.0377,14.4283,33.8,21,1,4.25,LY,2023-07-03 22:01:18
477,nam som,17.7704,102.1895,26.16,96,100,0.55,TH,2023-07-03 22:01:19
478,canyon,34.9803,-101.9188,33.89,34,4,2.68,US,2023-07-03 22:01:19
479,roma,43.2128,-75.4557,26.88,76,70,0.46,US,2023-07-03 22:00:11
480,launceston,-41.45,147.1667,6.3,93,40,3.09,AU,2023-07-03 22:01:19
481,abha,18.2164,42.5053,21.89,39,46,0.24,SA,2023-07-03 22:01:19
482,tongchuan,35.0806,109.0897,16.39,74,48,2.87,CN,2023-07-03 22:01:19
483,riacho de santana,-13.6092,-42.9389,22.8,34,3,1.91,BR,2023-07-03 22:01:20
484,czluchow,53.6672,17.3588,11.73,75,28,3.3,PL,2023-07-03 22:01:20
485,olinda,-8.0089,-34.8553,24.92,83,61,6.01,BR,2023-07-03 22:01:20
486,sao joao da barra,-21.6403,-41.0511,18.5,70,20,5.05,BR,2023-07-03 22:01:20
487,boyolangu,-8.1181,111.8935,22.79,95,97,1.48,ID,2023-07-03 22:01:20
488,rindal,63.0565,9.2124,10.54,97,100,1.87,NO,2023-07-03 22:01:21
489,kenai,60.5544,-151.2583,13.97,95,100,7.2,US,2023-07-03 21:56:57
490,gibraltar,36.1447,-5.3526,24.97,83,0,3.09,GI,2023-07-03 22:01:21
491,egvekinot,66.3167,-179.1667,10.93,56,19,3.43,RU,2023-07-03 22:01:21
492,samarai,-10.6167,150.6667,26.71,86,97,5.92,PG,2023-07-03 22:01:21
493,port hardy,50.6996,-127.4199,16.37,70,28,5.17,CA,2023-07-03 22:01:22
494,deniliquin,-35.5333,144.9667,9.67,96,100,4.02,AU,2023-07-03 22:01:22
495,san cristobal,7.7669,-72.225,24.66,76,75,2.09,VE,2023-07-03 22:01:22
496,port-gentil,-0.7193,8.7815,22.3,91,5,6.33,GA,2023-07-03 22:01:22
497,mayumba,-3.432,10.6554,20.65,95,16,2.34,GA,2023-07-03 22:01:23
498,bawku,11.0616,-0.2417,28.72,62,48,4.58,GH,2023-07-03 22:01:24
499,meulaboh,4.1363,96.1285,23.89,90,39,1.75,ID,2023-07-03 22:01:24
500,yeovil,50.9416,-2.6321,15.6,75,75,3.6,GB,2023-07-03 22:00:43
501,ust-maya,60.4167,134.5333,21.49,81,100,1.41,RU,2023-07-03 21:59:28
502,glace bay,46.1969,-59.957,20.18,95,100,5.14,CA,2023-07-03 22:01:24
503,betamcherla,15.4667,78.1667,24.99,85,100,2.45,IN,2023-07-03 22:01:24
504,hamilton,39.1834,-84.5333,29.22,72,80,3.84,US,2023-07-03 22:01:25
505,half moon bay,37.4636,-122.4286,31.62,64,75,7.72,US,2023-07-03 22:01:26
506,rabo de peixe,37.8,-25.5833,19.73,73,75,3.09,PT,2023-07-03 22:01:26
507,krasnyy yar,46.5331,48.3456,21.96,50,51,3.67,RU,2023-07-03 21:58:37
508,wageningen,51.9667,5.6667,17.25,88,100,4.12,NL,2023-07-03 21:55:56
509,kalemie,-5.9475,29.1947,21.31,70,0,2.17,CD,2023-07-03 22:01:26
510,tynda,55.1667,124.7167,19.27,72,1,0.98,RU,2023-07-03 21:56:30
511,awbari,26.5921,12.7805,34.35,14,41,2.41,LY,2023-07-03 22:01:27
512,sunderland,54.9047,-1.3822,12.87,74,3,0.45,GB,2023-07-03 22:01:27
513,syasstroy,60.1367,32.5691,14.06,76,97,6.72,RU,2023-07-03 22:01:27
514,vidim,56.4088,103.1106,14.07,92,100,3.68,RU,2023-07-03 22:01:27
515,lorengau,-2.0226,147.2712,27.94,81,98,3.41,PG,2023-07-03 22:01:27
516,saravan,39.7196,45.6483,15.29,69,8,3.31,AM,2023-07-03 22:01:28
517,mehamn,71.0357,27.8492,7.97,100,75,2.57,NO,2023-07-03 22:01:28
518,la palma,33.8464,-118.0467,37.76,63,0,3.6,US,2023-07-03 22:01:28
519,bang saphan,11.2126,99.5117,24.9,91,100,1.61,TH,2023-07-03 22:01:28
520,salinas,36.6777,-121.6555,32.78,64,0,7.72,US,2023-07-03 22:01:28
521,te anau,-45.4167,167.7167,7.01,86,93,2.36,NZ,2023-07-03 22:01:29
522,vuktyl,63.8567,57.3094,14.9,95,19,2.42,RU,2023-07-03 22:01:29
523,gallup,35.5281,-108.7426,33.91,11,0,4.47,US,2023-07-03 22:01:29
524,lagos,6.5833,3.75,24.68,91,97,2.07,NG,2023-07-03 21:56:22
525,aykhal,66.0,111.5,11.85,66,55,2.21,RU,2023-07-03 22:01:29
526,san lawrenz,36.0553,14.204,22.7,86,0,6.84,MT,2023-07-03 22:01:29
527,nikolaevo,42.6333,25.8,24.2,70,12,1.69,BG,2023-07-03 22:01:30
528,ahipara,-35.1667,173.1667,14.9,79,84,6.02,NZ,2023-07-03 22:01:30
529,qui nhon,13.7667,109.2333,25.91,80,100,1.42,VN,2023-07-03 22:01:30
530,bonnyville,54.2668,-110.735,10.89,70,100,7.65,CA,2023-07-03 21:59:47
531,zhezkazgan,47.8043,67.7144,21.44,43,53,3.76,KZ,2023-07-03 22:00:15
532,ancud,-41.8697,-73.8203,8.89,75,97,3.75,CL,2023-07-03 22:01:31
533,suoyarvi,62.0833,32.35,11.92,80,73,4.59,RU,2023-07-03 22:01:31
534,arlit,18.7369,7.3853,36.88,7,73,5.39,NE,2023-07-03 22:01:31
535,okhotsk,59.3833,143.3,14.83,81,57,2.19,RU,2023-07-03 21:58:36
536,el tocuyo,9.7873,-69.7937,30.39,48,23,3.01,VE,2023-07-03 22:01:32
537,maues,-3.3836,-57.7186,27.31,75,85,0.64,BR,2023-07-03 22:01:32
538,gold coast,-28.0,153.4333,16.67,96,100,3.6,AU,2023-07-03 22:01:33
539,clifton springs,-38.15,144.5667,10.07,93,100,0.0,AU,2023-07-03 22:01:33
540,kaeo,-35.1,173.7833,14.88,87,72,4.02,NZ,2023-07-03 22:01:33
541,araouane,18.9048,-3.5265,40.11,18,3,0.62,ML,2023-07-03 22:01:33
542,namibe,-15.1961,12.1522,19.13,86,0,1.41,AO,2023-07-03 22:01:33
543,wanning,18.8003,110.3967,27.57,89,99,4.7,CN,2023-07-03 22:01:34
544,llanes,43.4198,-4.7549,19.28,84,40,0.93,ES,2023-07-03 21:59:41
545,soyo,-6.1349,12.3689,21.07,92,0,2.88,AO,2023-07-03 22:01:34
546,saint-georges,12.0564,-61.7485,27.14,86,100,5.97,GD,2023-07-03 22:01:34
547,onguday,50.75,86.15,9.59,89,11,0.79,RU,2023-07-03 22:01:34
548,saint-augustin,51.226,-58.6502,13.16,98,100,2.09,CA,2023-07-03 22:01:34
549,coahuayana,18.7333,-103.6833,32.75,57,33,3.49,MX,2023-07-03 22:01:35
550,waddan,29.1614,16.139,29.41,34,0,5.19,LY,2023-07-03 22:01:35
551,okato,-39.2,173.8833,14.54,90,79,3.58,NZ,2023-07-03 22:01:35
552,pitimbu,-7.4706,-34.8086,24.75,84,70,6.34,BR,2023-07-03 22:01:35
553,immokalee,26.4187,-81.4173,39.0,84,0,0.0,US,2023-07-03 22:01:35
554,nelson bay,-32.7167,152.15,13.89,99,100,1.79,AU,2023-07-03 22:01:36
555,biltine,14.5333,20.9167,33.48,32,86,1.53,TD,2023-07-03 22:01:36
556,rapar,23.5667,70.6333,29.17,76,99,5.66,IN,2023-07-03 22:01:36
557,peniche,39.3558,-9.3811,19.6,90,11,7.43,PT,2023-07-03 22:01:36
558,lambarene,-0.7001,10.2406,23.17,82,42,2.06,GA,2023-07-03 22:01:37
559,tomigusuku,26.185,127.675,27.87,89,75,8.23,JP,2023-07-03 22:01:37
560,fukumitsu,36.55,136.8667,22.59,96,21,2.68,JP,2023-07-03 22:01:37
561,fort myers beach,26.452,-81.9481,34.45,64,0,5.14,US,2023-07-03 22:01:37
562,talcahuano,-36.7167,-73.1167,13.82,88,40,5.66,CL,2023-07-03 21:58:35
563,korla,41.7597,86.1469,26.19,24,2,2.7,CN,2023-07-03 22:00:28
